{
  "stores": [
    {
      "name": "Matt & Nat"
    }
  ],
  "restaurants": [
    {
      "placeId": "",
      "name": "Café São",
      "phone": "",
      "address": "2210 Avenue de Lorimier",
      "address2": "",
      "city": "Montreal",
      "province": "Quebec",
      "postal code": "H2K 3X3",
      "longitude": -73.560479,
      "latitude": 45.529429,
      "vegan": "Vegan",
      "website": "https://goo.gl/maps/DoNywJfFY4P2"
    },
    {
      "placeId": "",
      "name": "New Moon Cafe",
      "phone": "",
      "address": "150 Cherry St",
      "address2": "",
      "city": "Burlington",
      "province": "Vermont",
      "postal code": "05401",
      "longitude": -73.212115,
      "latitude": 44.479423,
      "vegan": "Vegan and vegetarian options",
      "website": "https://goo.gl/maps/4xPWNhU8C4H2"
    },
    {
      "placeId": "",
      "name": "Restaurant Radis",
      "phone": "",
      "address": "361 Rue Bernard O",
      "address2": "",
      "city": "Montreal",
      "province": "Quebec",
      "postal code": "H2V 1T6",
      "longitude": -73.605936,
      "latitude": 45.523499,
      "vegan": "Vegan",
      "website": "https://goo.gl/maps/j7b6SMDys872"
    },
    {
      "placeId": "",
      "name": "Code vert",
      "phone": "",
      "address": "1216, Bishop Street",
      "address2": "",
      "city": "Montreal",
      "province": "Quebec",
      "postal code": "H3G 2E3",
      "longitude": -73.575340,
      "latitude": 45.495778,
      "vegan": "Vegan",
      "website": "https://restocodevert.ca/en/"
    },
    {
      "placeId": "",
      "name": "La Chapelle Barbiers",
      "phone": "",
      "address": "519 Rue Rachel E",
      "address2": "",
      "city": "Montreal",
      "province": "Quebec",
      "postal code": "H2J 2H3",
      "longitude": -73.577151,
      "latitude": 45.523145,
      "vegan": "Barbershop and hair salon for men and women",
      "website": "https://goo.gl/maps/fruFHugfXTp"
    },
    {
      "placeId": "",
      "name": "Hindusthali",
      "phone": "",
      "address": "4147 Rue Saint-Denis",
      "address2": "",
      "city": "Montreal",
      "province": "Quebec",
      "postal code": "H2W 2M7",
      "longitude": -73.577397,
      "latitude": 45.521710,
      "vegan": "Vegan and vegetarian",
      "website": "https://goo.gl/maps/j4KiobvHuh92"
    },
    {
      "placeId": "",
      "name": "Sham",
      "phone": "",
      "address": "152 Avenue Mozart E",
      "address2": "",
      "city": "Montreal",
      "province": "Quebec",
      "postal code": "H2S 1B4",
      "longitude": -73.614218,
      "latitude": 45.534675,
      "vegan": "Vegan",
      "website": "https://goo.gl/maps/WZiAvYRkjpF2"
    },
    {
      "placeId": "",
      "name": "BKIND",
      "phone": "",
      "address": "110 Rue McGill",
      "address2": "",
      "city": "Montreal",
      "province": "Quebec",
      "postal code": "H2Y 2E5",
      "longitude": -73.555458,
      "latitude": 45.499419,
      "vegan": "Vegan",
      "website": "https://goo.gl/maps/NLZqWud6QZP2"
    },
    {
      "placeId": "",
      "name": "La Panthère verte (multiple locations)",
      "phone": "",
      "address": "",
      "address2": "",
      "city": "Montreal",
      "province": "Quebec",
      "postal code": "",
      "longitude": -73.571176,
      "latitude": 45.503969,
      "vegan": "Vegan",
      "website": "https://www.google.com/maps/search/panthere+verte/@45.498933,-73.6286667,12.97z/data=!4m2!2m1!6e2?hl=en"
    },
    {
      "placeId": "",
      "name": "Copper Branch (multiple locations)",
      "phone": "",
      "address": "",
      "address2": "",
      "city": "Montreal",
      "province": "Quebec",
      "postal code": "",
      "longitude": -73.571176,
      "latitude": 45.503969,
      "vegan": "Vegan",
      "website": "https://www.google.com/maps/search/copper+branch+montreal/@45.5217357,-73.7483204,10.9z"
    },
    {
      "placeId": "",
      "name": "Végécafé Vertuose",
      "phone": "",
      "address": "2250 Galt Ouest",
      "address2": "",
      "city": "Sherbrooke",
      "province": "Quebec",
      "postal code": "",
      "longitude": -71.928235,
      "latitude": 45.387075,
      "vegan": "Vegan",
      "website": "https://goo.gl/maps/cz5hcowPeSQ2"
    },
    {
      "placeId": "",
      "name": "Restaurant NESS",
      "phone": "",
      "address": "241 rue Saint-Joseph Est",
      "address2": "",
      "city": "Québec",
      "province": "Quebec",
      "postal code": "",
      "longitude": -71.227585,
      "latitude": 46.813152,
      "vegan": "",
      "website": "https://goo.gl/maps/Cwpjnd9msr72"
    },
    {
      "placeId": "",
      "name": "Olistik",
      "phone": "",
      "address": "761 Boulevard Mercure",
      "address2": "",
      "city": "Drummondville",
      "province": "Quebec",
      "postal code": "",
      "longitude": -72.475402,
      "latitude": 45.873918,
      "vegan": "Vegan",
      "website": "https://goo.gl/maps/wAr8yATCEXR2"
    },
    {
      "placeId": "",
      "name": "CloClo Choco",
      "phone": "",
      "address": "33 rue Azarie-Côté",
      "address2": "",
      "city": "Granby",
      "province": "Quebec",
      "postal code": "",
      "longitude": -72.745574,
      "latitude": 45.392003,
      "vegan": "Vegan",
      "website": "https://goo.gl/maps/C6aJVGnzq2J2"
    },
    {
      "placeId": "",
      "name": "Gaïa",
      "phone": "",
      "address": "840 rue Shefford",
      "address2": "",
      "city": "Bromont",
      "province": "Quebec",
      "postal code": "",
      "longitude": -72.658898,
      "latitude": 45.317606,
      "vegan": "Vegan",
      "website": "https://goo.gl/maps/aHnBS72MQXw"
    },
    {
      "placeId": "",
      "name": "Cafe Frida",
      "phone": "",
      "address": "15 rue des Forges",
      "address2": "",
      "city": "Trois-Rivières",
      "province": "Quebec",
      "postal code": "G9A 6A8",
      "longitude": -72.538837,
      "latitude": 46.341479,
      "vegan": "Vegan",
      "website": "https://goo.gl/maps/3BkYJx9rvvo"
    },
    {
      "placeId": "",
      "name": "Coop le Cagibi",
      "phone": "",
      "address": "6596 St Laurent",
      "address2": "",
      "city": "Montreal",
      "province": "Quebec",
      "postal code": "H2S 3C6",
      "longitude": -73.610997,
      "latitude": 45.531249,
      "vegan": "Vegetarian",
      "website": "https://www.facebook.com/le.cagibi/"
    },
    {
      "placeId": "",
      "name": "Le Soixante 5",
      "phone": "",
      "address": "78 Côte du Passage",
      "address2": "",
      "city": "Lévis",
      "province": "Quebec",
      "postal code": "G6V 5S7",
      "longitude": -71.183285,
      "latitude": 46.806157,
      "vegan": "Vegan",
      "website": "https://lesoixante5.com/"
    },
    {
      "placeId": "",
      "name": "Nabati Bistro",
      "phone": "",
      "address": "1859 St Louis",
      "address2": "",
      "city": "Montreal",
      "province": "Quebec",
      "postal code": "H4M 1N5",
      "longitude": -73.678281,
      "latitude": 45.504084,
      "vegan": "Vegan",
      "website": "https://nabatibistro.ca/"
    },
    {
      "placeId": "",
      "name": "Rawesome",
      "phone": "",
      "address": "151 Gounod",
      "address2": "",
      "city": "Montreal",
      "province": "Quebec",
      "postal code": "H2R 1A8",
      "longitude": -73.627655,
      "latitude": 45.539347,
      "vegan": "",
      "website": "http://www.rawesome.ca/"
    },
    {
      "placeId": "",
      "name": "Coop le milieu",
      "phone": "",
      "address": "1251 Rue Robin",
      "address2": "",
      "city": "Montreal",
      "province": "Quebec",
      "postal code": "H2L 1W8",
      "longitude": -73.559635,
      "latitude": 45.520544,
      "vegan": "Vegan",
      "website": "https://goo.gl/maps/h4w8U367AQP2"
    },
    {
      "placeId": "",
      "name": "Chef Veganessa",
      "phone": "",
      "address": "275 Elm Ave",
      "address2": "",
      "city": "Beaconsfield",
      "province": "Quebec",
      "postal code": "H9W 2E4",
      "longitude": -73.864607,
      "latitude": 45.432024,
      "vegan": "Vegan",
      "website": "http://www.veganessa.ca/"
    },
    {
      "placeId": "",
      "name": "L’Îlot - Galerie Art’chipel",
      "phone": "",
      "address": "5743 Rue Saint-Louis",
      "address2": "",
      "city": "Lévis",
      "province": "Quebec",
      "postal code": "G6V 4E2",
      "longitude": -71.183231,
      "latitude": 46.805797,
      "vegan": "Vegan and vegetarian",
      "website": "https://www.facebook.com/RestaurantIlot/"
    },
    {
      "placeId": "",
      "name": "Véganeville Bar santé végétalien",
      "phone": "",
      "address": "2995 1re Avenue",
      "address2": "",
      "city": "Québec",
      "province": "Quebec",
      "postal code": "G1L 3P2",
      "longitude": -71.245161,
      "latitude": 46.837776,
      "vegan": "Vegan",
      "website": "https://www.facebook.com/anmazumba"
    },
    {
      "placeId": "",
      "name": "Les gourmandises LOUCA",
      "phone": "",
      "address": "778 St Jean",
      "address2": "",
      "city": "Québec",
      "province": "Quebec",
      "postal code": "",
      "longitude": -71.217536,
      "latitude": 46.811276,
      "vegan": "",
      "website": "https://goo.gl/maps/C6VKumNHoTy"
    },
    {
      "placeId": "",
      "name": "Cvégé",
      "phone": "",
      "address": "360 Sicard",
      "address2": "",
      "city": "Sainte Thérèse",
      "province": "Quebec",
      "postal code": "",
      "longitude": -73.863175,
      "latitude": 45.643944,
      "vegan": "",
      "website": "https://goo.gl/maps/W3XAf1C15dU2"
    },
    {
      "placeId": "",
      "name": "Le raton végé",
      "phone": "",
      "address": "3985 Saint Laurent",
      "address2": "",
      "city": "Montreal",
      "province": "Quebec",
      "postal code": "",
      "longitude": -73.578584,
      "latitude": 45.516827,
      "vegan": "",
      "website": "https://goo.gl/maps/95aZUPqZ6yk"
    },
    {
      "placeId": "",
      "name": "Boutique Sila",
      "phone": "",
      "address": "1371 Mont-Royal",
      "address2": "",
      "city": "Montreal",
      "province": "Quebec",
      "postal code": "",
      "longitude": -73.577032,
      "latitude": 45.530657,
      "vegan": "",
      "website": "https://goo.gl/maps/9G8Mj1mBTFS2"
    },
    {
      "placeId": "",
      "name": "Le 3e lieu",
      "phone": "",
      "address": "213 St-Jean",
      "address2": "",
      "city": "Longueuil",
      "province": "Quebec",
      "postal code": "",
      "longitude": -73.509340,
      "latitude": 45.536288,
      "vegan": "",
      "website": "https://goo.gl/maps/JdJHD4UEkHn"
    },
    {
      "placeId": "",
      "name": "Végé prêt à manger",
      "phone": "",
      "address": "573 St Georges",
      "address2": "",
      "city": "Trois-Rivières",
      "province": "Quebec",
      "postal code": "",
      "longitude": -72.546784,
      "latitude": 46.341799,
      "vegan": "",
      "website": "https://goo.gl/maps/yQd4FyzCp2Q2"
    },
    {
      "placeId": "",
      "name": "L’escalier",
      "phone": "",
      "address": "552 Saint-Catherine",
      "address2": "",
      "city": "Montreal",
      "province": "Quebec",
      "postal code": "",
      "longitude": -73.559075,
      "latitude": 45.515069,
      "vegan": "Vegetarian",
      "website": "http://lescalier-montreal.com/"
    },
    {
      "placeId": "",
      "name": "Le Kitchen",
      "phone": "",
      "address": "1806 William St",
      "address2": "",
      "city": "Montreal",
      "province": "Quebec",
      "postal code": "",
      "longitude": -73.566726,
      "latitude": 45.487404,
      "vegan": "vegan",
      "website": "https://goo.gl/maps/J73L4cGrRjK2"
    },
    {
      "placeId": "",
      "name": "Schlouppe Bistrot Nakamichi",
      "phone": "",
      "address": "2159 Mackay St",
      "address2": "",
      "city": "Montreal",
      "province": "Quebec",
      "postal code": "",
      "longitude": -73.580214,
      "latitude": 45.497466,
      "vegan": "Vegan menu called Vegemichi",
      "website": "https://goo.gl/maps/Q8wU2h4BF1o"
    },
    {
      "placeId": "",
      "name": "Café Santropol",
      "phone": "",
      "address": "3990 Saint Urbain",
      "address2": "",
      "city": "Montreal",
      "province": "Quebec",
      "postal code": "",
      "longitude": -73.580536,
      "latitude": 45.515590,
      "vegan": "",
      "website": "https://goo.gl/maps/88H2dZmYTgP2"
    },
    {
      "placeId": "",
      "name": "Local Jerk",
      "phone": "",
      "address": "8 Duluth E",
      "address2": "",
      "city": "Montreal",
      "province": "Quebec",
      "postal code": "",
      "longitude": -73.579144,
      "latitude": 45.517165,
      "vegan": "",
      "website": "https://goo.gl/maps/3yb3PnrycHq"
    },
    {
      "placeId": "",
      "name": "Cafe Dei Campi",
      "phone": "",
      "address": "1360 Rosemont",
      "address2": "",
      "city": "Montreal",
      "province": "Quebec",
      "postal code": "",
      "longitude": -73.592209,
      "latitude": 45.537774,
      "vegan": "",
      "website": "https://goo.gl/maps/1GvUsn2MNZQ2"
    },
    {
      "placeId": "ChIJ64hnwBQZyUwR8A1Ff4ZAE74",
      "name": "La Lumiere du Mile End",
      "phone": "",
      "address": "214 Rue Bernard Ouest",
      "address2": "",
      "city": "Montreal",
      "province": "Quebec",
      "postal code": "H2T 2K4",
      "longitude": -73.604415,
      "latitude": 45.524659,
      "vegan": "Vegan",
      "website": "https://goo.gl/maps/2tuFvHCsi7A2"
    },
    {
      "placeId": "ChIJ64hnwBQZyUwR8A1Ff4ZAE74",
      "name": "Havre aux Glaces (multiple)",
      "phone": "",
      "address": "138 Avenue Atwater",
      "address2": "",
      "city": "Montreal",
      "province": "Quebec",
      "postal code": "H4C 2H6",
      "longitude": -73.575572,
      "latitude": 45.478922,
      "vegan": "Vegan options",
      "website": "http://havreauxglaces.com/"
    },
    {
      "placeId": "ChIJ64hnwBQZyUwR8A1Ff4ZAE74",
      "name": "Falafel St. Jacques",
      "phone": "(514) 595-7482",
      "address": "345 Rue Saint-Jacques",
      "address2": "",
      "city": "Lachine",
      "province": "Quebec",
      "postal code": "H8R 1E6",
      "longitude": -73.648671,
      "latitude": 45.443446,
      "vegan": "Vegan options",
      "website": "http://www.falafelstjacques.com/"
    },
    {
      "placeId": "ChIJ64hnwBQZyUwR8A1Ff4ZAE74",
      "name": "Le Poké Bar",
      "phone": "(514) 903-6777",
      "address": "2153 Crescent",
      "address2": "",
      "city": "Montreal",
      "province": "Quebec",
      "postal code": "H3G 2C1",
      "longitude": -73.578344,
      "latitude": 45.498663,
      "vegan": "Vegan options",
      "website": "https://goo.gl/maps/q4Xuq4c8fks"
    },
    {
      "placeId": "ChIJ64hnwBQZyUwR8A1Ff4ZAE74",
      "name": "Yuan",
      "phone": "(514) 848-0513",
      "address": "2115 St Denis",
      "address2": "",
      "city": "Montreal",
      "province": "Quebec",
      "postal code": "H2X 3K8",
      "longitude": -73.567007,
      "latitude": 45.516894,
      "vegan": "Vegan options",
      "website": "http://yuanvegetarien.com/"
    },
    {
      "placeId": "ChIJ64hnwBQZyUwR8A1Ff4ZAE74",
      "name": "Arepera du plateau",
      "phone": "(514) 508-7267",
      "address": "73 Rue Prince Arthur Est",
      "address2": "",
      "city": "Montreal",
      "province": "Quebec",
      "postal code": "H2X 1B4",
      "longitude": -73.572016,
      "latitude": 45.514778,
      "vegan": "Vegan options",
      "website": "http://www.arepera.ca/"
    },
    {
      "placeId": "ChIJ64hnwBQZyUwR8A1Ff4ZAE74",
      "name": "Esquina",
      "phone": "(514) 903-4501",
      "address": "4526 Avenue Papineau",
      "address2": "",
      "city": "Montreal",
      "province": "Quebec",
      "postal code": "H2H 1V3",
      "longitude": -73.575230,
      "latitude": 45.533099,
      "vegan": "Vegan options",
      "website": "https://www.esquinaqc.ca/"
    },
    {
      "placeId": "ChIJ64hnwBQZyUwR8A1Ff4ZAE74",
      "name": "Gusta",
      "phone": "",
      "address": "191 Place du Marché-du-Nord",
      "address2": "",
      "city": "Montreal",
      "province": "Quebec",
      "postal code": "H2S 1A2",
      "longitude": -73.616157,
      "latitude": 45.535987,
      "vegan": "Vegan",
      "website": "http://gustafoods.com/"
    },
    {
      "placeId": "ChIJ64hnwBQZyUwR8A1Ff4ZAE74",
      "name": "Falafel Avenue",
      "phone": "",
      "address": "2020 Boulevard Robert-Bourassa",
      "address2": "",
      "city": "Montreal",
      "province": "Quebec",
      "postal code": "H3A 2A5",
      "longitude": -73.572524,
      "latitude": 45.504273,
      "vegan": "Vegan",
      "website": "http://falafelavenue.com/our-food/our-menu/"
    },
    {
      "placeId": "ChIJ64hnwBQZyUwR8A1Ff4ZAE74",
      "name": "Cafe Juicy Lotus",
      "phone": "(514) 279-5678",
      "address": "5568 Monkland",
      "address2": "",
      "city": "Montreal",
      "province": "Quebec",
      "postal code": "H4A 1C9",
      "longitude": -73.622239,
      "latitude": 45.475817,
      "vegan": "Vegan options",
      "website": "https://juicylotus.com/"
    },
    {
      "placeId": "ChIJ64hnwBQZyUwR8A1Ff4ZAE74",
      "name": "Nilufar",
      "phone": "(514) 846-1947",
      "address": "1923 Saint-Catherine Ouest",
      "address2": "",
      "city": "Montreal",
      "province": "Quebec",
      "postal code": "H3H 1M3",
      "longitude": -73.580847,
      "latitude": 45.492655,
      "vegan": "Vegan options",
      "website": "http://restaurantnilufar.com"
    },
    {
      "placeId": "ChIJ64hnwBQZyUwR8A1Ff4ZAE74",
      "name": "Petit Marché végé",
      "phone": "(514) 279-5678",
      "address": "7057 Saint-Denis",
      "address2": "",
      "city": "Montreal",
      "province": "Quebec",
      "postal code": "H2S 2S5",
      "longitude": -73.613280,
      "latitude": 45.538047,
      "vegan": "Vegan and vegetarian",
      "website": "https://goo.gl/maps/pfE86LBy9u72"
    },
    {
      "placeId": "ChIJCfVFisobyUwRYr3HlDbuOdI",
      "name": "Nil Bleu",
      "phone": "(514) 285-4628",
      "address": "3706 St Denis",
      "address2": "",
      "city": "Montreal",
      "province": "Quebec",
      "postal code": "H2X 3L7",
      "longitude": -73.571201,
      "latitude": 45.518502,
      "vegan": "Vegan options",
      "website": "http://www.nilbleurestaurant.com/"
    },
    {
      "placeId": "ChIJlVQ9onxOyEwR47rSImIHNCs",
      "name": "La vie la vie comptoir santé",
      "phone": "(450) 252-7778",
      "address": "438 Avenue Saint Simon",
      "address2": "",
      "city": "Saint-Hyacinthe",
      "province": "Quebec",
      "postal code": "J2S 5c2",
      "longitude": -72.945356,
      "latitude": 45.626400,
      "website": "https://www.lavielavie.ca/"
    },
    {
      "placeId": "ChIJZfkrgNMbyUwR2GzSUqzW8SM",
      "name": "Aux Vivres",
      "phone": "(514) 842-3479",
      "address": "4631 St Laurent Blvd",
      "address2": "",
      "city": "Montreal",
      "province": "Quebec",
      "postal code": "H2T 1R2",
      "longitude": -73.588389,
      "latitude": 45.521393,
      "vegan": "Vegan"
    },
    {
      "placeId": "ChIJ_zMuy8wbyUwR1iMYfv6PZeg",
      "name": "Sushi Momo",
      "phone": "(514) 825-6363",
      "address": "3609 St Denis St",
      "address2": "",
      "city": "Montreal",
      "province": "Quebec",
      "postal code": "H2X 3L6",
      "longitude": -73.569495,
      "latitude": 45.518119,
      "vegan": "Vegan",
      "website": "https://goo.gl/maps/3fzTBoz4hhA2"
    },
    {
      "placeId": "ChIJqV27IswbyUwRE9TX2zG9d2Y",
      "name": "ChuChai",
      "phone": "(514) 843-4194",
      "address": "4088 St Denis St",
      "address2": "",
      "city": "Montreal",
      "province": "Quebec",
      "postal code": "H2W 2M5",
      "longitude": -73.576686,
      "latitude": 45.521100,
      "vegan": "Vegan"
    },
    {
      "placeId": "ChIJY-t_h84byUwRXRHjLH_h46k",
      "name": "Vegano",
      "phone": "(514) 369-0000",
      "address": "1999 Mont-Royal Ave E",
      "address2": "",
      "city": "Montreal",
      "province": "Quebec",
      "postal code": "H2H 1J4",
      "longitude": -73.573235,
      "latitude": 45.534719,
      "vegan": "Vegan"
    },
    {
      "placeId": "ChIJYd5zTHgZyUwRrU08PgI-4vY",
      "name": "Délicieux Veg Fusion Café",
      "phone": "(514) 379-1279",
      "address": "5718 avenue du Parc",
      "address2": "",
      "city": "Montreal",
      "province": "Quebec",
      "postal code": "H2V 4H1",
      "longitude": -73.604996,
      "latitude": 45.523272,
      "vegan": "Vegan",
      "website": "https://www.delicieuxvfc.com/"
    },
    {
      "placeId": "ChIJX4D7ZisayUwRTizEiy1ihAQ",
      "name": "Lola Rosa Parc",
      "phone": "(514) 843-5652",
      "address": "4581 Park Ave",
      "address2": "",
      "city": "Montreal",
      "province": "Quebec",
      "postal code": "H2V 4E4",
      "longitude": -73.590673,
      "latitude": 45.517755,
      "vegan": "Vegan and vegetarian"
    },
    {
      "placeId": "ChIJpXE-BEgayUwRCcfDkNZLQnk",
      "name": "Lola Rosa Café",
      "phone": "(514) 287-9337",
      "address": "545 Milton St",
      "address2": "",
      "city": "Montreal",
      "province": "Quebec",
      "postal code": "H2X 1W5",
      "longitude": -73.575808,
      "latitude": 45.507467,
      "vegan": "Vegan and vegetarian"
    },
    {
      "placeId": "ChIJf47YI18ayUwRWC-WNxWntzk",
      "name": "Lola Rosa William",
      "phone": "(514) 875-5151",
      "address": "727 William St",
      "address2": "",
      "city": "Montreal",
      "province": "Quebec",
      "postal code": "H3C 1P1",
      "longitude": -73.557994,
      "latitude": 45.498310,
      "vegan": "Vegan and vegetarian"
    },
    {
      "placeId": "ChIJtU--x3kZyUwRIlyFvMCNkao",
      "name": "Invitation V",
      "phone": "(514) 271-8111",
      "address": "201 St Jacques St",
      "address2": "",
      "city": "Montreal",
      "province": "Quebec",
      "postal code": "H2Y 1M6",
      "longitude": -73.558506,
      "latitude": 45.504195,
      "vegan": "Vegan"
    },
    {
      "placeId": "ChIJF7d7TagjyUwR8MGpwx94laY",
      "name": "57Cals",
      "phone": "(450) 505-8181",
      "address": "1114 Boulevard Curé-Labelle",
      "address2": "",
      "city": "Laval",
      "province": "Quebec",
      "postal code": "H7V 2V5",
      "longitude": -73.752229,
      "latitude": 45.544861,
      "vegan": "Vegan"
    },
    {
      "placeId": "ChIJb-Be9o4byUwRRQv1wtZ61Qo",
      "name": "Antidote",
      "phone": "(514) 303-6300",
      "address": "3459 Ontario E",
      "address2": "",
      "city": "Montreal",
      "province": "Quebec",
      "postal code": "H1W 1R4",
      "longitude": -73.545702,
      "latitude": 45.543911
    },
    {
      "placeId": "ChIJ8TvAussbyUwRS4HBBQ2UtWY",
      "name": "Herbivores",
      "phone": "(514) 842-9677",
      "address": "3842 St Denis St",
      "address2": "",
      "city": "Montreal",
      "province": "Quebec",
      "postal code": "H2W 2M2",
      "longitude": -73.573459,
      "latitude": 45.519475,
      "vegan": "Vegan"
    },
    {
      "placeId": "ChIJbw05-80eyUwRTc1Yl6QpVLA",
      "name": "Pho da son",
      "phone": "(514) 903-6655",
      "address": "3343 Rue Jarry E",
      "address2": "",
      "city": "Montreal",
      "province": "Quebec",
      "postal code": "H1Z 2E5",
      "longitude": -73.609493,
      "latitude": 45.565151,
      "vegan": "Vegan and vegetarian",
      "website": "https://phodason.ca/"
    },
    {
      "placeId": "ChIJixcVIrQQyUwRyC8wxoj5fNs",
      "name": "Mouton vert",
      "phone": "(514) 369-3456",
      "address": "6000 Sherbrooke St W",
      "address2": "",
      "city": "Montreal",
      "province": "Quebec",
      "postal code": "H4A 1X9",
      "longitude": -73.619644,
      "latitude": 45.468698
    },
    {
      "placeId": "ChIJJ4KmQ1kayUwRogZOVhjyJVg",
      "name": "LOV (McGill)",
      "phone": "(514) 287-1155",
      "address": "464 McGill St",
      "address2": "",
      "city": "Montreal",
      "province": "Quebec",
      "postal code": "H2Y 2H2",
      "longitude": -73.559010,
      "latitude": 45.500744
    },
    {
      "placeId": "ChIJaUmkCEIayUwROdUaD0c8iNs",
      "name": "LOV (Mountain)",
      "phone": "(514) 287-1155",
      "address": "1232 Mountain St",
      "address2": "",
      "city": "Montreal",
      "province": "Quebec",
      "postal code": "H3G 1Z1",
      "longitude": -73.574591,
      "latitude": 45.497433
    },
    {
      "placeId": "ChIJEZTudMgjyUwRMi_2xVraKsg",
      "name": "LOV (Laval)",
      "phone": "",
      "address": "140 Promenade Du Centropolis",
      "address2": "",
      "city": "Laval",
      "province": "Quebec",
      "postal code": "H7T 2Z6",
      "longitude": -73.744674,
      "latitude": 45.562152
    },
    {
      "placeId": "ChIJk9gYRVcXyUwRWQ4HCsFxQIc",
      "name": "Comptoir Urbain / Espace Végane",
      "phone": "",
      "address": "6-5003 Earnscliffe Ave",
      "address2": "",
      "city": "Montreal",
      "province": "Quebec",
      "postal code": "H3X 2P4",
      "longitude": -73.630028,
      "latitude": 45.481631,
      "vegan": "Vegan"
    },
    {
      "placeId": "ChIJiWGCkn8ZyUwRH394vk8v85s",
      "name": "Café Résonance",
      "phone": "",
      "address": "5175A Park Ave",
      "address2": "",
      "city": "Montreal",
      "province": "Quebec",
      "postal code": "H2V 4G3",
      "longitude": -73.597215,
      "latitude": 45.520459
    },
    {
      "placeId": "ChIJiWPbtkEayUwRAOJJv4g38xY",
      "name": "Café Leaves",
      "phone": "(514) 928-3665",
      "address": "2051 Mountain St",
      "address2": "",
      "city": "Montreal",
      "province": "Quebec",
      "postal code": "H3G 1Z8",
      "longitude": -73.577215,
      "latitude": 45.499053,
      "vegan": "Vegan"
    },
    {
      "placeId": "ChIJfz68_dEbyUwR-s2VcNT_3UA",
      "name": "Café Tuyo",
      "phone": "(514) 544-8896",
      "address": "370 Marie-Anne St E",
      "address2": "",
      "city": "Montreal",
      "province": "Quebec",
      "postal code": "H2J 2K8",
      "longitude": -73.580678,
      "latitude": 45.522696,
      "vegan": "Vegan"
    },
    {
      "placeId": "ChIJO35879IbyUwRCB0AdbXmoyU",
      "name": "Belém",
      "phone": "(514) 706-5315",
      "address": "4409 St Laurent Blvd",
      "address2": "",
      "city": "Montreal",
      "province": "Quebec",
      "postal code": "H2W 1Z8",
      "longitude": -73.584915,
      "latitude": 45.519678,
      "vegan": "Vegan"
    },
    {
      "placeId": "ChIJGbTpV7MbyUwRsLDZv7Kop-w",
      "name": "Resto Végo St-Denis",
      "phone": "(514) 845-2627",
      "address": "1720 St Denis St",
      "address2": "",
      "city": "Montreal",
      "province": "Quebec",
      "postal code": "H2X 3K6",
      "longitude": -73.564673,
      "latitude": 45.515536,
      "vegan": "Vegan and vegetarian"
    },
    {
      "placeId": "ChIJNTe51sobyUwRqQG8wK-Zq-Y",
      "name": "Sophie Sucrée",
      "phone": "(514) 823-5865",
      "address": "167 Pins Ave E",
      "address2": "",
      "city": "Montreal",
      "province": "Quebec",
      "postal code": "H2W 1N9",
      "longitude": -73.573848,
      "latitude": 45.516726,
      "vegan": "Vegan"
    },
    {
      "placeId": "ChIJnUTU_bYQyUwRIOnThTSC6ac",
      "name": "Vegan Rapide",
      "phone": "(514) 489-9259",
      "address": "6206 Sherbrooke St W",
      "address2": "",
      "city": "Montreal",
      "province": "Quebec",
      "postal code": "H4B 1M2",
      "longitude": -73.623434,
      "latitude": 45.466428,
      "vegan": "Vegan"
    },
    {
      "placeId": "ChIJRzNWRLcbyUwRuKhp--3cwL0",
      "name": "Vegan Rapide - Le Misanthrope",
      "phone": "(514) 360-8954",
      "address": "1385 Ontario St E",
      "address2": "",
      "city": "Montreal",
      "province": "Quebec",
      "postal code": "H2L 1S2",
      "longitude": -73.561161,
      "latitude": 45.523464
    },
    {
      "placeId": "ChIJfWkkILQQyUwR7cGfC2L0hDQ",
      "name": "Ashley's",
      "phone": "(514) 369-7566",
      "address": "5942 Sherbrooke St W",
      "address2": "",
      "city": "Montreal",
      "province": "Quebec",
      "postal code": "H4A 1X7",
      "longitude": -73.619261,
      "latitude": 45.468664,
      "vegan": "Vegan and vegetarian"
    },
    {
      "placeId": "ChIJqYxKyswbyUwRmDiFgTcU3dg",
      "name": "Dugout",
      "phone": "(514) 659-3938",
      "address": "22 Avenue Duluth E",
      "address2": "",
      "city": "Montreal",
      "province": "Quebec",
      "postal code": "H2W 1G6",
      "longitude": -73.578951,
      "latitude": 45.517377
    }
  ]
}
